ax	ay	az	gx	gy	gz	mx	my	mz	MotorIzquierdo	MotorDerecho	DutyMotorIzquierdo	DutyMotorDerecho	roll	pitch	yaw	yaw_Gps	Bateria	TDerecho	TIzquierdo	IDerecho	IIzquierdo	WDerecho	WIzquierdo	U	UR	UL	UtR	UtL	errorR	UiR	UdR	UpR	Ui1R	errorL	UiL	UdL	UpL	Ui1L	t	KpL
-0.034668	0.040039	0.952148	-1.646342	0.182927	0.304878	21.731251	183.241409	31.696877	0.000000	0.000000	50.000000	-0.034668	-42.587975	-9.944148	-24.341089	-24.341089	12.923200	27.000000	31.000000	0.000000	0.000000	0.000000	0.000000	0.000000	0.000000	0.000000	0.000000	0.000000	0.000000	0.000000	0.000000	0.000000	0.000000	0.000000	0.000000	0.000000	0.000000	0.000000	0.000000	1.800000	
-0.013672	0.030273	0.949707	-1.524390	0.060976	0.304878	21.731251	183.241409	31.696877	0.000000	0.000000	50.000000	-0.013672	-40.720654	-9.540125	-24.512985	-24.512985	12.923200	27.000000	31.000000	0.000000	0.000000	0.000000	0.000000	0.000000	0.000000	0.000000	0.000000	0.000000	0.000000	0.000000	0.000000	0.000000	0.000000	0.000000	0.000000	0.000000	0.000000	0.000000	0.050000	1.800000	
-0.025879	0.030273	0.954102	-1.402439	0.304878	0.304878	21.731251	183.241409	31.696877	0.000000	0.000000	50.000000	-0.025879	-38.916054	-9.094516	-24.512985	-24.512985	12.923200	27.000000	31.000000	0.000000	0.000000	0.000000	0.000000	0.000000	0.000000	0.000000	0.000000	0.000000	0.000000	0.000000	0.000000	0.000000	0.000000	0.000000	0.000000	0.000000	0.000000	0.000000	0.100000	1.800000	
-0.024414	0.030762	0.958008	-1.524390	0.365854	0.060976	21.731251	183.241409	31.696877	0.000000	0.000000	50.000000	-0.024414	-37.186951	-8.665665	-24.581575	-24.581575	12.923200	27.000000	31.000000	0.000000	0.000000	0.000000	0.000000	0.000000	0.000000	0.000000	0.000000	0.000000	0.000000	0.000000	0.000000	0.000000	0.000000	0.000000	0.000000	0.000000	0.000000	0.000000	0.150000	1.800000	
-0.023438	0.040527	0.966797	-1.585366	0.304878	0.182927	21.731251	183.241409	31.696877	0.000000	0.000000	50.000000	-0.023438	-35.510368	-8.249117	-24.727314	-24.727314	12.925600	27.000000	31.000000	0.000000	0.000000	0.000000	0.000000	0.000000	0.000000	0.000000	0.000000	0.000000	0.000000	0.000000	0.000000	0.000000	0.000000	0.000000	0.000000	0.000000	0.000000	0.000000	0.200000	1.800000	
-0.029785	0.038574	0.960449	-1.890244	0.243902	0.304878	22.265627	183.420715	30.835548	0.000000	0.000000	50.000000	-0.029785	-33.920170	-7.819841	-23.906359	-23.906359	12.923200	27.000000	31.000000	0.000000	0.000000	0.000000	0.000000	0.000000	0.000000	0.000000	0.000000	0.000000	0.000000	0.000000	0.000000	0.000000	0.000000	0.000000	0.000000	0.000000	0.000000	0.000000	0.250000	1.800000	
-0.019043	0.037598	0.949219	-1.646342	0.304878	0.304878	22.265627	183.420715	30.835548	0.000000	0.000000	50.000000	-0.019043	-32.382038	-7.428135	-23.906359	-23.906359	12.923200	27.000000	31.000000	0.000000	0.000000	0.000000	0.000000	0.000000	0.000000	0.000000	0.000000	0.000000	0.000000	0.000000	0.000000	0.000000	0.000000	0.000000	0.000000	0.000000	0.000000	0.000000	0.300000	1.800000	
-0.026367	0.035645	0.944824	-1.585366	0.121951	0.426829	21.375002	181.807037	31.696877	0.000000	0.000000	50.000000	-0.026367	-30.913036	-7.028789	-24.032583	-24.032583	12.925600	27.000000	31.000000	0.000000	0.000000	0.000000	0.000000	0.000000	0.000000	0.000000	0.000000	0.000000	0.000000	0.000000	0.000000	0.000000	0.000000	0.000000	0.000000	0.000000	0.000000	0.000000	0.350000	1.800000	
-0.022461	0.034668	0.951660	-1.646342	0.182927	0.121951	21.375002	181.807037	31.696877	0.000000	0.000000	50.000000	-0.022461	-29.510574	-6.657588	-24.227745	-24.227745	12.923200	27.000000	31.000000	0.000000	0.000000	0.000000	0.000000	0.000000	0.000000	0.000000	0.000000	0.000000	0.000000	0.000000	0.000000	0.000000	0.000000	0.000000	0.000000	0.000000	0.000000	0.000000	0.400000	1.800000	
-0.019043	0.041504	0.960449	-1.707317	0.182927	0.304878	21.375002	181.807037	31.696877	0.000000	0.000000	50.000000	-0.019043	-28.156376	-6.304503	-24.535009	-24.535009	12.923200	27.000000	31.000000	0.000000	0.000000	0.000000	0.000000	30.000000	5.872393	4.350000	0.000000	0.000000	0.000000	0.000000	0.000000	0.000000	0.000000	0.000000	0.000000	0.000000	0.000000	0.000000	0.450000	1.800000	
-0.024414	0.039062	0.959473	-1.646342	0.365854	0.182927	20.662500	181.089844	30.663282	0.000000	0.000000	50.000000	-0.024414	-26.863153	-5.940786	-24.535009	-24.535009	12.923200	27.000000	31.000000	0.000000	0.000000	0.000000	0.000000	30.000000	5.872393	4.350000	0.000000	0.000000	0.000000	0.000000	0.000000	0.000000	0.000000	0.000000	0.000000	0.000000	0.000000	0.000000	0.500000	1.800000	
0.010742	-0.009766	0.933105	-2.195122	-0.060976	0.182927	20.662500	181.089844	30.663282	0.000000	0.000000	50.000000	0.010742	-25.783138	-5.705317	-24.649725	-24.649725	12.925600	27.000000	31.000000	0.000000	0.000000	0.000000	0.000000	30.000000	5.872393	4.350000	0.000000	0.000000	0.000000	0.000000	0.000000	0.000000	0.000000	0.000000	0.000000	0.000000	0.000000	0.000000	0.550000	1.800000	
0.078613	-0.207031	0.981934	-1.646342	-0.121951	1.463415	21.196877	184.855087	21.877735	0.000000	0.000000	50.000000	0.078613	-25.261845	-5.623789	-24.581575	-24.581575	12.546400	27.000000	31.000000	0.000000	13.000000	0.000000	4.712385	30.000000	5.872393	4.350000	0.000000	0.000000	0.000000	0.000000	0.000000	0.000000	0.000000	0.000000	0.000000	0.000000	0.000000	0.000000	0.600000	1.800000	
-0.034180	0.143066	0.746094	-5.609756	4.573171	-2.195122	21.196877	184.855087	21.877735	0.000000	0.000000	50.000000	-0.034180	-23.919893	-5.106584	-24.581575	-24.581575	12.673600	27.000000	31.000000	0.000000	14.000000	0.000000	3.455749	30.000000	5.872393	4.350000	0.000000	0.000000	0.000000	0.000000	0.000000	0.000000	0.000000	0.000000	0.000000	0.000000	0.000000	0.000000	0.650000	1.800000	
-0.158691	-0.181152	1.039551	-3.902439	6.097561	2.743902	21.196877	184.855087	21.877735	0.000000	0.000000	50.000000	-0.158691	-23.504141	-4.106647	-25.025213	-25.025213	12.923200	27.000000	31.000000	0.000000	5.000000	0.000000	5.654862	30.000000	5.872393	4.350000	0.000000	0.000000	0.000000	0.000000	0.000000	0.000000	0.000000	0.000000	0.000000	0.000000	0.000000	0.000000	0.700000	1.800000	
0.113281	-0.030273	0.978516	0.487805	-5.182927	3.414634	20.484377	186.648056	18.432423	0.000000	0.000000	50.000000	0.113281	-22.526121	-4.411691	-24.823696	-24.823696	12.805600	27.000000	31.000000	9.000000	5.000000	4.712385	4.712385	30.000000	5.872393	4.350000	0.000000	0.000000	0.000000	0.000000	0.000000	0.000000	0.000000	0.000000	0.000000	0.000000	0.000000	0.000000	0.750000	1.800000	
0.091309	0.013672	0.715332	0.182927	2.682927	0.060976	20.484377	186.648056	18.432423	0.000000	0.000000	50.000000	0.091309	-21.454741	-4.441574	-24.455435	-24.455435	12.791200	27.000000	31.000000	13.000000	2.000000	4.712385	6.492620	30.000000	5.872393	4.350000	0.000000	0.000000	0.000000	0.000000	0.000000	0.000000	0.000000	0.000000	0.000000	0.000000	0.000000	0.000000	0.800000	1.800000	
-0.080078	-0.027832	1.060059	-3.658537	7.256098	0.304878	21.196877	184.496490	23.944923	0.000000	0.000000	50.000000	-0.080078	-20.734480	-3.674985	-24.455435	-24.455435	12.880000	27.000000	31.000000	5.000000	1.000000	6.073740	6.492620	30.000000	5.872393	4.350000	0.000000	0.000000	0.000000	0.000000	0.000000	0.000000	0.000000	0.000000	0.000000	0.000000	0.000000	0.000000	0.850000	1.800000	
-0.086914	-0.043945	1.124512	-2.012195	0.670732	1.219512	21.196877	184.496490	23.944923	0.000000	0.000000	50.000000	-0.086914	-20.010744	-3.227391	-24.581575	-24.581575	12.923200	27.000000	31.000000	2.000000	2.000000	6.911498	6.492620	30.000000	5.872393	4.350000	0.000000	0.000000	0.000000	0.000000	0.000000	0.000000	0.000000	0.000000	0.000000	0.000000	0.000000	0.000000	0.900000	1.800000	
0.098145	0.165039	0.900879	0.548781	-3.658537	-0.426829	21.196877	184.496490	23.944923	0.000000	0.000000	50.000000	0.098145	-18.631830	-3.565980	-24.171444	-24.171444	12.925600	27.000000	31.000000	1.000000	1.000000	6.911498	6.492620	30.000000	5.872393	4.350000	0.000000	0.000000	0.000000	0.000000	0.000000	0.000000	0.000000	0.000000	0.000000	0.000000	0.000000	0.000000	0.950000	1.800000	
-0.079590	-0.040039	0.983887	-2.865854	3.719512	0.121951	21.018751	184.317200	27.217970	0.000000	0.000000	50.000000	-0.079590	-18.052013	-2.986603	-24.909210	-24.909210	12.860800	27.000000	30.000000	2.000000	1.000000	6.492620	6.073740	30.000000	5.872393	4.350000	0.000000	0.000000	0.000000	0.000000	0.000000	0.000000	0.000000	0.000000	0.000000	0.000000	0.000000	0.000000	1.000000	1.800000	
-0.013672	-0.006348	1.062500	-1.463415	-1.951220	0.060976	21.018751	184.317200	27.217970	0.000000	0.000000	50.000000	-0.013672	-17.336466	-2.896209	-24.909210	-24.909210	12.923200	27.000000	30.000000	2.000000	1.000000	6.911498	6.492620	30.000000	5.872393	4.350000	0.000000	0.000000	0.000000	0.000000	0.000000	0.000000	0.000000	0.000000	0.000000	0.000000	0.000000	0.000000	1.050000	1.800000	
0.054688	0.032227	0.934082	-3.109756	0.731707	0.487805	21.731251	183.600006	26.873440	0.000000	0.000000	50.000000	0.054688	-16.628447	-2.879211	-24.535009	-24.535009	12.923200	27.000000	30.000000	1.000000	1.000000	7.330377	6.492620	30.000000	5.872393	4.350000	0.000000	0.000000	0.000000	0.000000	0.000000	0.000000	0.000000	0.000000	0.000000	0.000000	0.000000	0.000000	1.100000	1.800000	
0.014160	0.052246	0.927734	-2.134146	3.048780	-0.060976	21.731251	183.600006	26.873440	0.000000	0.000000	50.000000	0.014160	-15.843865	-2.637662	-24.478025	-24.478025	12.923200	27.000000	30.000000	1.000000	1.000000	6.911498	6.492620	30.000000	5.872393	4.350000	0.000000	0.000000	0.000000	0.000000	0.000000	0.000000	0.000000	0.000000	0.000000	0.000000	0.000000	0.000000	1.150000	1.800000	
0.072754	0.029297	0.908691	1.158537	-3.170732	0.548781	21.731251	183.600006	26.873440	0.000000	0.000000	50.000000	0.072754	-15.003456	-2.879268	-24.353008	-24.353008	12.925600	27.000000	30.000000	1.000000	1.000000	6.911498	6.492620	30.000000	5.872393	4.350000	0.000000	0.000000	0.000000	0.000000	0.000000	0.000000	0.000000	0.000000	0.000000	0.000000	0.000000	0.000000	1.200000	1.800000	
-0.073242	0.046875	0.947266	-0.609756	-1.463415	0.975610	22.978127	183.420715	28.768360	0.000000	0.000000	50.000000	-0.073242	-14.245942	-2.578632	-24.353008	-24.353008	12.923200	27.000000	30.000000	1.000000	1.000000	6.911498	6.492620	30.000000	5.872393	4.350000	0.000000	0.000000	0.000000	0.000000	0.000000	0.000000	0.000000	0.000000	0.000000	0.000000	0.000000	0.000000	1.250000	1.800000	
-0.011230	-0.030762	0.989746	-3.963415	4.024390	-0.060976	22.978127	183.420715	28.768360	0.000000	0.000000	50.000000	-0.011230	-13.904909	-2.221559	-24.296490	-24.296490	12.923200	27.000000	30.000000	1.000000	1.000000	6.911498	6.073740	30.000000	5.872393	4.350000	0.000000	0.000000	0.000000	0.000000	0.000000	0.000000	0.000000	0.000000	0.000000	0.000000	0.000000	0.000000	1.300000	1.800000	
-0.041016	0.062500	0.973145	0.304878	-0.487805	0.975610	21.196877	183.420715	28.768360	0.000000	0.000000	50.000000	-0.041016	-13.112350	-2.004165	-24.227745	-24.227745	12.925600	27.000000	30.000000	0.000000	1.000000	6.911498	6.492620	30.000000	5.872393	4.350000	0.000000	0.000000	0.000000	0.000000	0.000000	0.000000	0.000000	0.000000	0.000000	0.000000	0.000000	0.000000	1.350000	1.800000	
-0.078125	0.060547	0.885742	-1.768293	-1.219512	-0.182927	21.196877	183.420715	28.768360	0.000000	0.000000	50.000000	-0.078125	-12.449164	-1.716259	-24.353008	-24.353008	12.923200	27.000000	30.000000	0.000000	1.000000	6.911498	6.911498	30.000000	5.872393	4.350000	0.000000	0.000000	0.000000	0.000000	0.000000	0.000000	0.000000	0.000000	0.000000	0.000000	0.000000	0.000000	1.400000	1.800000	
-0.003418	0.034180	0.994141	-0.731707	0.609756	0.487805	21.196877	183.420715	28.768360	0.000000	0.000000	50.000000	-0.003418	-11.856576	-1.582866	-24.353008	-24.353008	12.923200	27.000000	30.000000	0.000000	1.000000	6.911498	7.330377	30.000000	5.872393	4.350000	0.000000	0.000000	0.000000	0.000000	0.000000	0.000000	0.000000	0.000000	0.000000	0.000000	0.000000	0.000000	1.450000	1.800000	
-0.007324	0.005371	1.023438	-3.231707	1.768293	0.060976	20.484377	181.269150	27.390236	0.000000	0.000000	50.000000	-0.007324	-11.496959	-1.392390	-24.398136	-24.398136	12.923200	27.000000	30.000000	1.000000	1.000000	6.911498	6.911498	30.000000	5.872393	4.350000	0.000000	0.000000	0.000000	0.000000	0.000000	0.000000	0.000000	0.000000	0.000000	0.000000	0.000000	0.000000	1.500000	1.800000	
0.013184	0.046875	0.849609	0.243902	-2.560976	0.792683	20.484377	181.269150	27.390236	0.000000	0.000000	50.000000	0.013184	-10.845688	-1.480721	-24.581575	-24.581575	12.923200	27.000000	30.000000	1.000000	1.000000	6.911498	6.911498	30.000000	5.872393	4.350000	0.000000	0.000000	0.000000	0.000000	0.000000	0.000000	0.000000	0.000000	0.000000	0.000000	0.000000	0.000000	1.550000	1.800000	
-0.080078	0.038574	1.005859	-2.500000	0.853659	0.243902	20.484377	181.269150	27.390236	0.000000	0.000000	50.000000	-0.080078	-10.410030	-1.134035	-23.891945	-23.891945	12.923200	27.000000	30.000000	1.000000	0.000000	6.911498	6.911498	30.000000	5.872393	4.350000	0.000000	0.000000	0.000000	0.000000	0.000000	0.000000	0.000000	0.000000	0.000000	0.000000	0.000000	0.000000	1.600000	1.800000	
0.002930	0.038086	1.033691	-2.500000	2.317073	0.182927	20.484377	181.269150	27.390236	0.000000	0.000000	50.000000	0.002930	-9.996840	-0.964718	-23.891945	-23.891945	12.923200	27.000000	30.000000	0.000000	1.000000	6.911498	6.492620	30.000000	5.872393	4.350000	0.000000	0.000000	0.000000	0.000000	0.000000	0.000000	0.000000	0.000000	0.000000	0.000000	0.000000	0.000000	1.649999	1.800000	
-0.034180	0.072266	0.919434	-2.378049	-0.304878	-0.121951	20.484377	181.269150	27.390236	0.000000	0.000000	50.000000	-0.034180	-9.483486	-0.822477	-24.707460	-24.707460	12.925600	27.000000	30.000000	0.000000	1.000000	6.911498	6.911498	30.000000	5.872393	4.350000	0.000000	0.000000	0.000000	0.000000	0.000000	0.000000	0.000000	0.000000	0.000000	0.000000	0.000000	0.000000	1.699999	1.800000	
-0.021484	-0.007812	0.912598	-0.670732	-2.134146	0.914634	21.196877	181.269150	28.423830	0.000000	0.000000	50.000000	-0.021484	-9.151645	-0.806134	-24.240217	-24.240217	12.923200	27.000000	30.000000	0.000000	1.000000	6.911498	6.492620	30.000000	5.872393	4.350000	0.000000	0.000000	0.000000	0.000000	0.000000	0.000000	0.000000	0.000000	0.000000	0.000000	0.000000	0.000000	1.749999	1.800000	
0.009277	0.054199	0.966797	-0.853659	0.304878	0.000000	21.196877	181.269150	28.423830	0.000000	0.000000	50.000000	0.009277	-8.665056	-0.771924	-24.284294	-24.284294	12.923200	27.000000	31.000000	2.000000	1.000000	6.911498	6.492620	30.000000	5.872393	4.350000	0.000000	0.000000	0.000000	0.000000	0.000000	0.000000	0.000000	0.000000	0.000000	0.000000	0.000000	0.000000	1.799999	1.800000	
-0.107910	0.015625	0.895996	0.243902	-0.548781	0.000000	21.196877	181.269150	28.423830	0.000000	0.000000	50.000000	-0.107910	-8.258060	-0.415462	-24.284294	-24.284294	12.923200	27.000000	31.000000	3.000000	1.000000	6.492620	6.492620	30.000000	5.872393	4.350000	0.000000	0.000000	0.000000	0.000000	0.000000	0.000000	0.000000	0.000000	0.000000	0.000000	0.000000	0.000000	1.849999	1.800000	
-0.065918	0.055176	0.965332	-1.158537	-1.585366	0.243902	23.334375	182.344925	26.701174	0.000000	0.000000	50.000000	-0.065918	-7.828904	-0.271948	-24.592241	-24.592241	12.923200	27.000000	31.000000	1.000000	2.000000	6.911498	6.073740	30.000000	5.872393	4.350000	0.000000	0.000000	0.000000	0.000000	0.000000	0.000000	0.000000	0.000000	0.000000	0.000000	0.000000	0.000000	1.899999	1.800000	
0.017578	0.069336	0.970215	-2.012195	1.585366	-0.121951	23.334375	182.344925	26.701174	0.000000	0.000000	50.000000	0.017578	-7.423274	-0.224728	-24.296490	-24.296490	12.904000	27.000000	31.000000	1.000000	1.000000	7.330377	6.073740	30.000000	5.872393	4.350000	0.000000	0.000000	0.000000	0.000000	0.000000	0.000000	0.000000	0.000000	0.000000	0.000000	0.000000	0.000000	1.949999	1.800000	
0.045410	0.077148	0.912598	0.121951	0.548781	0.426829	20.840626	183.779297	28.423830	0.000000	0.000000	50.000000	0.045410	-6.893859	-0.316720	-24.128403	-24.128403	12.923200	27.000000	31.000000	1.000000	1.000000	6.911498	6.492620	30.000000	5.872393	4.350000	0.000000	0.000000	0.000000	0.000000	0.000000	0.000000	0.000000	0.000000	0.000000	0.000000	0.000000	0.000000	1.999999	1.800000	
-0.090820	0.046387	1.007324	-3.048780	0.426829	0.182927	20.840626	183.779297	28.423830	0.000000	0.000000	50.000000	-0.090820	-6.657169	-0.016938	-24.128403	-24.128403	12.853600	27.000000	31.000000	1.000000	1.000000	6.911498	6.492620	30.000000	5.872393	4.350000	0.000000	0.000000	0.000000	0.000000	0.000000	0.000000	0.000000	0.000000	0.000000	0.000000	0.000000	0.000000	2.049999	1.800000	
-0.078125	0.038574	0.931641	-0.975610	-0.914634	0.426829	20.840626	183.779297	28.423830	0.000000	0.000000	50.000000	-0.078125	-6.342142	0.184701	-24.376469	-24.376469	12.923200	27.000000	31.000000	0.000000	1.000000	7.330377	6.073740	30.000000	5.872393	4.350000	0.000000	0.000000	0.000000	0.000000	0.000000	0.000000	0.000000	0.000000	0.000000	0.000000	0.000000	0.000000	2.099999	1.800000	
-0.007324	0.057129	0.924805	-1.280488	1.097561	0.243902	20.840626	184.137894	25.667580	0.000000	0.000000	50.000000	-0.007324	-5.998233	0.261861	-24.227745	-24.227745	12.923200	27.000000	31.000000	0.000000	1.000000	6.911498	6.073740	30.000000	5.872393	4.350000	0.000000	0.000000	0.000000	0.000000	0.000000	0.000000	0.000000	0.000000	0.000000	0.000000	0.000000	0.000000	2.149999	1.800000	
-0.043457	0.049316	0.992188	0.000000	-2.560976	0.304878	20.840626	184.137894	25.667580	0.000000	0.000000	50.000000	-0.043457	-5.641801	0.255096	-23.976477	-23.976477	12.923200	27.000000	31.000000	0.000000	1.000000	6.911498	6.073740	30.000000	5.872393	4.350000	0.000000	0.000000	0.000000	0.000000	0.000000	0.000000	0.000000	0.000000	0.000000	0.000000	0.000000	0.000000	2.199999	1.800000	
-0.027344	0.048828	0.974121	-2.317073	-0.060976	0.182927	20.840626	184.137894	25.667580	0.000000	0.000000	50.000000	-0.027344	-5.417490	0.327927	-23.976477	-23.976477	12.923200	27.000000	31.000000	0.000000	1.000000	6.911498	6.073740	30.000000	5.872393	4.350000	0.000000	0.000000	0.000000	0.000000	0.000000	0.000000	0.000000	0.000000	0.000000	0.000000	0.000000	0.000000	2.249999	1.800000	
-0.068359	0.023438	0.954102	-1.097561	0.670732	0.304878	20.840626	184.137894	25.667580	0.000000	0.000000	50.000000	-0.068359	-5.215352	0.557180	-24.102234	-24.102234	12.923200	27.000000	30.000000	0.000000	1.000000	6.911498	6.492620	30.000000	5.872393	4.350000	0.000000	0.000000	0.000000	0.000000	0.000000	0.000000	0.000000	0.000000	0.000000	0.000000	0.000000	0.000000	2.299999	1.800000	
-0.031738	0.070801	0.929199	-0.853659	-1.341463	0.000000	20.840626	184.137894	25.667580	0.000000	0.000000	50.000000	-0.031738	-4.865462	0.567943	-23.794836	-23.794836	12.868000	27.000000	30.000000	0.000000	1.000000	7.330377	6.492620	30.000000	5.872393	4.350000	0.000000	0.000000	0.000000	0.000000	0.000000	0.000000	0.000000	0.000000	0.000000	0.000000	0.000000	0.000000	2.349999	1.800000	
0.028320	0.000977	0.934082	-2.987805	0.609756	0.548781	21.731251	183.958603	27.562502	0.000000	0.000000	50.000000	0.028320	-4.850249	0.494977	-23.962488	-23.962488	12.923200	27.000000	30.000000	1.000000	1.000000	7.330377	6.073740	30.000000	5.872393	4.350000	0.000000	0.000000	0.000000	0.000000	0.000000	0.000000	0.000000	0.000000	0.000000	0.000000	0.000000	0.000000	2.399999	1.800000	
-0.027832	0.041016	0.991699	-1.036585	1.524390	0.121951	21.731251	183.958603	27.562502	0.000000	0.000000	50.000000	-0.027832	-4.625555	0.634773	-23.962488	-23.962488	12.923200	27.000000	30.000000	1.000000	1.000000	7.330377	6.492620	30.000000	5.872393	4.350000	0.000000	0.000000	0.000000	0.000000	0.000000	0.000000	0.000000	0.000000	0.000000	0.000000	0.000000	0.000000	2.449999	1.800000	
-0.022461	0.064941	0.897461	-0.304878	-1.219512	0.304878	20.840626	183.420715	28.079298	0.000000	0.000000	50.000000	-0.022461	-4.287825	0.623284	-24.398136	-24.398136	12.923200	27.000000	30.000000	1.000000	1.000000	7.330377	6.073740	30.000000	5.872393	4.350000	0.000000	0.000000	0.000000	0.000000	0.000000	0.000000	0.000000	0.000000	0.000000	0.000000	0.000000	0.000000	2.499999	1.800000	
-0.011230	-0.020020	1.002930	-1.951220	-1.036585	0.243902	20.840626	183.420715	28.079298	0.000000	0.000000	50.000000	-0.011230	-4.309181	0.581822	-24.455435	-24.455435	12.923200	27.000000	30.000000	0.000000	1.000000	6.911498	6.492620	30.000000	5.872393	4.350000	0.000000	0.000000	0.000000	0.000000	0.000000	0.000000	0.000000	0.000000	0.000000	0.000000	0.000000	0.000000	2.549999	1.800000	
0.013184	0.010742	0.949707	-1.341463	0.182927	0.609756	20.840626	183.420715	28.079298	0.000000	0.000000	50.000000	0.013184	-4.210541	0.533770	-24.455435	-24.455435	12.923200	27.000000	31.000000	1.000000	1.000000	6.911498	6.492620	30.000000	5.872393	4.350000	0.000000	0.000000	0.000000	0.000000	0.000000	0.000000	0.000000	0.000000	0.000000	0.000000	0.000000	0.000000	2.599999	1.800000	
-0.102051	0.066406	0.939941	-2.500000	3.170732	-0.243902	21.018751	183.600006	28.596096	0.000000	0.000000	50.000000	-0.102051	-4.010633	0.978735	-24.341089	-24.341089	12.923200	27.000000	31.000000	1.000000	1.000000	6.492620	6.492620	30.000000	5.872393	4.350000	0.000000	0.000000	0.000000	0.000000	0.000000	0.000000	0.000000	0.000000	0.000000	0.000000	0.000000	0.000000	2.649999	1.800000	
-0.103027	0.026855	0.985840	-2.439024	-0.365854	0.426829	21.018751	183.600006	28.596096	0.000000	0.000000	50.000000	-0.103027	-3.938213	1.216632	-24.018869	-24.018869	12.923200	27.000000	31.000000	3.000000	0.000000	6.492620	6.492620	30.000000	5.872393	4.350000	0.000000	0.000000	0.000000	0.000000	0.000000	0.000000	0.000000	0.000000	0.000000	0.000000	0.000000	0.000000	2.699999	1.800000	
-0.052246	0.111816	1.004395	-0.731707	0.975610	0.182927	20.306252	183.600006	27.562502	0.000000	0.000000	50.000000	-0.052246	-3.548922	1.361331	-24.341089	-24.341089	12.923200	27.000000	31.000000	2.000000	1.000000	6.911498	6.492620	30.000000	5.872393	4.350000	0.000000	0.000000	0.000000	0.000000	0.000000	0.000000	0.000000	0.000000	0.000000	0.000000	0.000000	0.000000	2.749999	1.800000	
0.023926	-0.003906	0.964355	-1.219512	0.487805	-0.060976	20.306252	183.600006	27.562502	0.000000	0.000000	50.000000	0.023926	-3.525936	1.256569	-24.341089	-24.341089	12.918400	27.000000	30.000000	1.000000	1.000000	6.911498	6.073740	30.000000	5.872393	4.350000	0.000000	0.000000	0.000000	0.000000	0.000000	0.000000	0.000000	0.000000	0.000000	0.000000	0.000000	0.000000	2.799999	1.800000	
-0.085938	0.023438	0.971680	-0.914634	-1.524390	1.158537	20.306252	183.600006	27.562502	0.000000	0.000000	50.000000	-0.085938	-3.408634	1.380231	-24.398136	-24.398136	12.923200	27.000000	30.000000	1.000000	1.000000	6.911498	6.492620	30.000000	5.872393	4.350000	0.000000	0.000000	0.000000	0.000000	0.000000	0.000000	0.000000	0.000000	0.000000	0.000000	0.000000	0.000000	2.849998	1.800000	
-0.010254	0.025391	0.982422	-2.621951	1.341463	-0.182927	21.196877	184.137894	27.045704	0.000000	0.000000	50.000000	-0.010254	-3.378460	1.416658	-24.284294	-24.284294	12.923200	27.000000	30.000000	1.000000	1.000000	6.911498	6.911498	30.000000	5.872393	4.350000	0.000000	0.000000	0.000000	0.000000	0.000000	0.000000	0.000000	0.000000	0.000000	0.000000	0.000000	0.000000	2.899998	1.800000	
-0.027832	0.032227	0.929199	-2.621951	0.670732	0.304878	21.196877	184.137894	27.045704	0.000000	0.000000	50.000000	-0.027832	-3.323924	1.474524	-24.115389	-24.115389	12.923200	27.000000	30.000000	1.000000	1.000000	6.911498	6.492620	30.000000	5.872393	4.350000	0.000000	0.000000	0.000000	0.000000	0.000000	0.000000	0.000000	0.000000	0.000000	0.000000	0.000000	0.000000	2.949998	1.800000	
0.036133	0.049316	0.896973	-1.219512	-1.219512	0.000000	21.196877	184.137894	27.045704	0.000000	0.000000	50.000000	0.036133	-3.145237	1.235779	-24.115389	-24.115389	12.923200	27.000000	30.000000	0.000000	1.000000	6.911498	6.492620	30.000000	5.872393	4.350000	0.000000	0.000000	0.000000	0.000000	0.000000	0.000000	0.000000	0.000000	0.000000	0.000000	0.000000	0.000000	2.999998	1.800000	
-0.006348	0.065430	0.970703	-0.792683	0.731707	0.487805	21.196877	184.137894	27.045704	0.000000	0.000000	50.000000	-0.006348	-2.919057	1.240079	-24.409775	-24.409775	12.923200	27.000000	30.000000	0.000000	1.000000	7.330377	6.492620	30.000000	5.872393	4.350000	0.000000	0.000000	0.000000	0.000000	0.000000	0.000000	0.000000	0.000000	0.000000	0.000000	0.000000	0.000000	3.049998	1.800000	
-0.075684	0.023438	0.931152	-2.073171	0.487805	-0.304878	21.196877	184.137894	27.045704	0.000000	0.000000	50.000000	-0.075684	-2.888068	1.440908	-24.171444	-24.171444	12.923200	27.000000	30.000000	0.000000	1.000000	7.330377	6.492620	30.000000	5.872393	4.350000	0.000000	0.000000	0.000000	0.000000	0.000000	0.000000	0.000000	0.000000	0.000000	0.000000	0.000000	0.000000	3.099998	1.800000	
0.000000	0.055664	0.931152	-1.280488	-1.341463	0.426829	22.087502	182.165634	27.907032	0.000000	0.000000	50.000000	0.000000	-2.719802	1.312799	-24.659992	-24.659992	12.925600	27.000000	30.000000	0.000000	1.000000	6.911498	6.492620	30.000000	5.872393	4.350000	0.000000	0.000000	0.000000	0.000000	0.000000	0.000000	0.000000	0.000000	0.000000	0.000000	0.000000	0.000000	3.149998	1.800000	
-0.039062	0.040527	0.916992	-2.256098	0.670732	0.000000	22.087502	182.165634	27.907032	0.000000	0.000000	50.000000	-0.039062	-2.653316	1.410860	-24.659992	-24.659992	12.923200	27.000000	30.000000	0.000000	1.000000	7.330377	6.492620	30.000000	5.872393	4.350000	0.000000	0.000000	0.000000	0.000000	0.000000	0.000000	0.000000	0.000000	0.000000	0.000000	0.000000	0.000000	3.199998	1.800000	
-0.096680	0.056641	0.972168	-1.585366	1.585366	0.365854	21.731251	183.958603	26.184376	0.000000	0.000000	50.000000	-0.096680	-2.518332	1.710065	-24.581575	-24.581575	12.918400	27.000000	30.000000	1.000000	1.000000	6.911498	6.492620	30.000000	5.872393	4.350000	0.000000	0.000000	0.000000	0.000000	0.000000	0.000000	0.000000	0.000000	0.000000	0.000000	0.000000	0.000000	3.249998	1.800000	
-0.050293	0.042969	1.047363	-2.256098	-0.304878	0.487805	21.731251	183.958603	26.184376	0.000000	0.000000	50.000000	-0.050293	-2.470134	1.756184	-23.920616	-23.920616	12.913600	27.000000	30.000000	1.000000	1.000000	6.911498	6.492620	30.000000	5.872393	4.350000	0.000000	0.000000	0.000000	0.000000	0.000000	0.000000	0.000000	0.000000	0.000000	0.000000	0.000000	0.000000	3.299998	1.800000	
0.029297	0.028809	0.886719	-1.341463	0.365854	0.121951	21.731251	183.958603	26.184376	0.000000	0.000000	50.000000	0.029297	-2.403202	1.603262	-23.526199	-23.526199	12.923200	27.000000	30.000000	1.000000	1.000000	7.330377	6.911498	30.000000	5.872393	4.350000	0.000000	0.000000	0.000000	0.000000	0.000000	0.000000	0.000000	0.000000	0.000000	0.000000	0.000000	0.000000	3.349998	1.800000	
0.023926	0.027832	0.907227	-1.341463	1.402439	0.000000	19.771875	181.986328	26.356642	0.000000	0.000000	50.000000	0.023926	-2.344813	1.528213	-23.526199	-23.526199	12.894400	27.000000	30.000000	1.000000	1.000000	6.911498	6.492620	30.000000	5.872393	4.350000	0.000000	0.000000	0.000000	0.000000	0.000000	0.000000	0.000000	0.000000	0.000000	0.000000	0.000000	0.000000	3.399998	1.800000	
-0.095703	0.031738	0.953613	-1.585366	0.914634	0.243902	19.771875	181.986328	26.356642	0.000000	0.000000	50.000000	-0.095703	-2.295012	1.790797	-24.512985	-24.512985	12.923200	27.000000	30.000000	1.000000	1.000000	7.330377	6.492620	30.000000	5.872393	4.350000	0.000000	0.000000	0.000000	0.000000	0.000000	0.000000	0.000000	0.000000	0.000000	0.000000	0.000000	0.000000	3.449998	1.800000	
-0.026367	0.069336	0.940918	-1.402439	0.304878	0.731707	19.771875	181.986328	26.356642	0.000000	0.000000	50.000000	-0.026367	-2.122891	1.807324	-24.215139	-24.215139	12.925600	27.000000	30.000000	0.000000	1.000000	7.330377	6.911498	30.000000	5.872393	4.350000	0.000000	0.000000	0.000000	0.000000	0.000000	0.000000	0.000000	0.000000	0.000000	0.000000	0.000000	0.000000	3.499998	1.800000	
0.023926	0.026855	0.974121	-1.585366	-0.853659	0.365854	21.553125	183.420715	26.356642	0.000000	0.000000	50.000000	0.023926	-2.099066	1.615616	-24.455435	-24.455435	12.923200	27.000000	30.000000	1.000000	1.000000	6.492620	6.492620	30.000000	5.872393	4.350000	0.000000	0.000000	0.000000	0.000000	0.000000	0.000000	0.000000	0.000000	0.000000	0.000000	0.000000	0.000000	3.549998	1.800000	
-0.026855	0.060547	0.981445	-1.219512	0.304878	0.243902	21.553125	183.420715	26.356642	0.000000	0.000000	50.000000	-0.026855	-1.962334	1.637965	-24.455435	-24.455435	12.918400	27.000000	31.000000	4.000000	0.000000	6.492620	6.911498	30.000000	5.872393	4.350000	0.000000	0.000000	0.000000	0.000000	0.000000	0.000000	0.000000	0.000000	0.000000	0.000000	0.000000	0.000000	3.599998	1.800000	
-0.060059	0.098633	0.960937	-1.524390	-1.280488	-0.182927	21.553125	184.137894	28.768360	0.000000	0.000000	50.000000	-0.060059	-1.734337	1.678201	-24.707460	-24.707460	12.918400	27.000000	31.000000	2.000000	1.000000	6.492620	6.911498	30.000000	5.872393	4.350000	0.000000	0.000000	0.000000	0.000000	0.000000	0.000000	0.000000	0.000000	0.000000	0.000000	0.000000	0.000000	3.649998	1.800000	
-0.044922	0.015625	0.908691	-1.707317	-0.487805	0.304878	21.553125	184.137894	28.768360	0.000000	0.000000	50.000000	-0.044922	-1.765234	1.720316	-24.386372	-24.386372	12.872800	27.000000	31.000000	1.000000	1.000000	7.330377	6.911498	30.000000	5.872393	4.350000	0.000000	0.000000	0.000000	0.000000	0.000000	0.000000	0.000000	0.000000	0.000000	0.000000	0.000000	0.000000	3.699998	1.800000	
0.002441	0.017578	0.917969	0.304878	-1.707317	0.121951	21.553125	184.137894	28.768360	0.000000	0.000000	50.000000	0.002441	-1.688571	1.551609	-24.215139	-24.215139	12.923200	27.000000	31.000000	1.000000	1.000000	6.911498	6.492620	30.000000	5.872393	4.350000	0.000000	0.000000	0.000000	0.000000	0.000000	0.000000	0.000000	0.000000	0.000000	0.000000	0.000000	0.000000	3.749998	1.800000	
-0.103516	0.065430	0.912109	-0.731707	-0.975610	0.182927	20.128126	182.344925	24.978518	0.000000	0.000000	50.000000	-0.103516	-1.520860	1.755077	-24.215139	-24.215139	12.923200	27.000000	30.000000	1.000000	1.000000	6.911498	6.492620	30.000000	5.872393	4.350000	0.000000	0.000000	0.000000	0.000000	0.000000	0.000000	0.000000	0.000000	0.000000	0.000000	0.000000	0.000000	3.799998	1.800000	
0.000977	-0.030273	1.013672	-3.719512	1.951220	0.182927	20.128126	182.344925	24.978518	0.000000	0.000000	50.000000	0.000977	-1.796505	1.772233	-24.341089	-24.341089	12.925600	27.000000	30.000000	1.000000	1.000000	6.911498	6.492620	30.000000	5.872393	4.350000	0.000000	0.000000	0.000000	0.000000	0.000000	0.000000	0.000000	0.000000	0.000000	0.000000	0.000000	0.000000	3.849998	1.800000	
0.027832	0.087402	0.887695	-0.853659	-0.426829	0.487805	21.018751	185.034378	28.596096	0.000000	0.000000	50.000000	0.027832	-1.552787	1.585222	-24.102234	-24.102234	12.923200	27.000000	30.000000	1.000000	1.000000	7.330377	7.330377	30.000000	5.872393	4.350000	0.000000	0.000000	0.000000	0.000000	0.000000	0.000000	0.000000	0.000000	0.000000	0.000000	0.000000	0.000000	3.899997	1.800000	
-0.027832	0.061035	0.961914	-1.219512	0.975610	0.548781	21.018751	185.034378	28.596096	0.000000	0.000000	50.000000	-0.027832	-1.437739	1.647414	-24.158564	-24.158564	12.925600	27.000000	30.000000	0.000000	1.000000	6.911498	6.073740	30.000000	5.872393	4.350000	0.000000	0.000000	0.000000	0.000000	0.000000	0.000000	0.000000	0.000000	0.000000	0.000000	0.000000	0.000000	3.949997	1.800000	
-0.016602	0.004883	1.013184	-2.012195	0.000000	0.243902	21.018751	185.034378	28.596096	0.000000	0.000000	50.000000	-0.016602	-1.533761	1.621750	-24.158564	-24.158564	12.925600	27.000000	30.000000	0.000000	1.000000	6.911498	7.853975	30.000000	5.872393	4.350000	0.000000	0.000000	0.000000	0.000000	0.000000	0.000000	0.000000	0.000000	0.000000	0.000000	0.000000	0.000000	3.999997	1.800000	
-0.003906	0.029785	0.935059	-1.829268	0.182927	0.487805	21.196877	184.137894	29.457424	0.000000	0.000000	50.000000	-0.003906	-1.538864	1.572279	-23.990316	-23.990316	12.923200	27.000000	30.000000	0.000000	1.000000	6.911498	6.492620	30.000000	5.872393	4.350000	0.000000	0.000000	0.000000	0.000000	0.000000	0.000000	0.000000	0.000000	0.000000	0.000000	0.000000	0.000000	4.049997	1.800000	
0.024902	0.038574	0.981934	-2.317073	3.292683	0.121951	21.196877	184.137894	29.457424	0.000000	0.000000	50.000000	0.024902	-1.548045	1.596750	-23.850473	-23.850473	12.923200	27.000000	31.000000	0.000000	1.000000	7.330377	6.492620	30.000000	5.872393	4.350000	0.000000	0.000000	0.000000	0.000000	0.000000	0.000000	0.000000	0.000000	0.000000	0.000000	0.000000	0.000000	4.099998	1.800000	
-0.071777	0.051270	0.966797	-1.219512	-0.914634	0.365854	20.840626	180.910553	27.734768	0.000000	0.000000	50.000000	-0.071777	-1.463251	1.691382	-24.524057	-24.524057	12.923200	27.000000	31.000000	1.000000	1.000000	6.911498	6.492620	30.000000	5.872393	4.350000	0.000000	0.000000	0.000000	0.000000	0.000000	0.000000	0.000000	0.000000	0.000000	0.000000	0.000000	0.000000	4.149998	1.800000	
0.036621	0.054688	0.952637	-1.463415	-0.243902	0.060976	20.840626	180.910553	27.734768	0.000000	0.000000	50.000000	0.036621	-1.382307	1.496260	-24.524057	-24.524057	12.923200	27.000000	31.000000	1.000000	1.000000	6.911498	6.492620	30.000000	5.872393	4.350000	0.000000	0.000000	0.000000	0.000000	0.000000	0.000000	0.000000	0.000000	0.000000	0.000000	0.000000	0.000000	4.199998	1.800000	
-0.068359	0.044922	0.958496	-0.182927	-1.036585	0.243902	20.840626	180.910553	27.734768	0.000000	0.000000	50.000000	-0.068359	-1.271394	1.581408	-24.145542	-24.145542	12.923200	27.000000	31.000000	1.000000	1.000000	7.330377	6.911498	30.000000	5.872393	4.350000	0.000000	0.000000	0.000000	0.000000	0.000000	0.000000	0.000000	0.000000	0.000000	0.000000	0.000000	0.000000	4.249998	1.800000	
-0.054688	0.012695	0.896484	-1.585366	0.853659	0.121951	21.375002	185.034378	27.217970	0.000000	0.000000	50.000000	-0.054688	-1.328197	1.727782	-24.466791	-24.466791	12.923200	27.000000	31.000000	0.000000	1.000000	7.330377	6.492620	30.000000	5.872393	4.350000	0.000000	0.000000	0.000000	0.000000	0.000000	0.000000	0.000000	0.000000	0.000000	0.000000	0.000000	0.000000	4.299998	1.800000	
0.007324	0.057129	0.946289	-1.707317	0.487805	0.304878	21.375002	185.034378	27.217970	0.000000	0.000000	50.000000	0.007324	-1.257282	1.654502	-23.835791	-23.835791	12.923200	27.000000	31.000000	1.000000	1.000000	6.911498	6.492620	30.000000	5.872393	4.350000	0.000000	0.000000	0.000000	0.000000	0.000000	0.000000	0.000000	0.000000	0.000000	0.000000	0.000000	0.000000	4.349998	1.800000	
-0.015625	-0.034180	0.964844	-2.256098	-0.670732	0.670732	21.375002	183.241409	28.940626	0.000000	0.000000	50.000000	-0.015625	-1.487805	1.594923	-23.835791	-23.835791	12.923200	27.000000	31.000000	1.000000	1.000000	7.330377	7.330377	30.000000	5.872393	4.350000	0.000000	0.000000	0.000000	0.000000	0.000000	0.000000	0.000000	0.000000	0.000000	0.000000	0.000000	0.000000	4.399999	1.800000	
-0.016602	0.035645	0.977539	-2.500000	-0.426829	0.182927	21.375002	183.241409	28.940626	0.000000	0.000000	50.000000	-0.016602	-1.516365	1.552263	-23.962488	-23.962488	12.918400	27.000000	31.000000	2.000000	1.000000	6.492620	6.492620	30.000000	5.872393	4.350000	0.000000	0.000000	0.000000	0.000000	0.000000	0.000000	0.000000	0.000000	0.000000	0.000000	0.000000	0.000000	4.449999	1.800000	
-0.026367	0.032227	0.925781	-2.743902	2.134146	0.304878	21.375002	183.241409	28.940626	0.000000	0.000000	50.000000	-0.026367	-1.560044	1.672309	-24.018869	-24.018869	12.923200	27.000000	31.000000	2.000000	1.000000	6.492620	6.492620	30.000000	5.872393	4.350000	0.000000	0.000000	0.000000	0.000000	0.000000	0.000000	0.000000	0.000000	0.000000	0.000000	0.000000	0.000000	4.499999	1.800000	
-0.097656	0.017578	0.972168	-2.012195	1.524390	-0.060976	21.375002	183.241409	28.940626	0.000000	0.000000	50.000000	-0.097656	-1.613702	1.958018	-24.171444	-24.171444	12.923200	27.000000	31.000000	1.000000	1.000000	6.911498	6.911498	30.000000	5.872393	4.350000	0.000000	0.000000	0.000000	0.000000	0.000000	0.000000	0.000000	0.000000	0.000000	0.000000	0.000000	0.000000	4.549999	1.800000	
-0.027344	-0.003418	0.956055	-1.036585	-0.914634	0.365854	21.375002	183.241409	28.940626	0.000000	0.000000	50.000000	-0.027344	-1.675783	1.905945	-24.171444	-24.171444	12.923200	27.000000	31.000000	1.000000	1.000000	6.911498	7.330377	30.000000	5.872393	4.350000	0.000000	0.000000	0.000000	0.000000	0.000000	0.000000	0.000000	0.000000	0.000000	0.000000	0.000000	0.000000	4.599999	1.800000	
0.003418	0.008789	0.962402	-2.256098	1.707317	-0.304878	22.621876	181.986328	28.423830	0.000000	0.000000	50.000000	0.003418	-1.760978	1.895451	-24.364801	-24.364801	12.918400	27.000000	31.000000	1.000000	1.000000	6.911498	6.492620	30.000000	5.872393	4.350000	0.000000	0.000000	0.000000	0.000000	0.000000	0.000000	0.000000	0.000000	0.000000	0.000000	0.000000	0.000000	4.650000	1.800000	
-0.070312	0.071289	0.975098	-1.463415	0.365854	0.243902	22.621876	181.986328	28.423830	0.000000	0.000000	50.000000	-0.070312	-1.621725	2.033040	-24.535009	-24.535009	12.923200	27.000000	31.000000	1.000000	1.000000	7.330377	6.073740	30.000000	5.872393	4.350000	0.000000	0.000000	0.000000	0.000000	0.000000	0.000000	0.000000	0.000000	0.000000	0.000000	0.000000	0.000000	4.700000	1.800000	
-0.067383	0.032715	1.027344	-2.256098	0.548781	0.121951	22.621876	181.986328	28.423830	0.000000	0.000000	50.000000	-0.067383	-1.644847	2.154627	-24.535009	-24.535009	12.872800	27.000000	31.000000	1.000000	2.000000	6.911498	6.911498	30.000000	5.872393	4.350000	0.000000	0.000000	0.000000	0.000000	0.000000	0.000000	0.000000	0.000000	0.000000	0.000000	0.000000	0.000000	4.750000	1.800000	
0.056641	0.049316	0.986816	-2.134146	0.975610	0.670732	21.731251	185.034378	27.562502	0.000000	0.000000	50.000000	0.056641	-1.608797	1.945328	-24.535009	-24.535009	12.925600	27.000000	31.000000	1.000000	1.000000	7.330377	6.492620	30.000000	5.872393	4.350000	0.000000	0.000000	0.000000	0.000000	0.000000	0.000000	0.000000	0.000000	0.000000	0.000000	0.000000	0.000000	4.800000	1.800000	
0.007812	0.021484	0.900391	-0.060976	-1.158537	0.182927	21.731251	185.034378	27.562502	0.000000	0.000000	50.000000	0.007812	-1.544827	1.775909	-23.976477	-23.976477	12.923200	27.000000	31.000000	0.000000	1.000000	7.330377	6.911498	30.000000	5.872393	4.350000	0.000000	0.000000	0.000000	0.000000	0.000000	0.000000	0.000000	0.000000	0.000000	0.000000	0.000000	0.000000	4.850000	1.800000	
-0.120117	0.000000	0.962891	-2.317073	0.731707	0.365854	19.950001	183.958603	28.251564	0.000000	0.000000	50.000000	-0.120117	-1.664967	2.085346	-24.240217	-24.240217	12.918400	27.000000	31.000000	0.000000	1.000000	7.330377	6.492620	30.000000	5.872393	4.350000	0.000000	0.000000	0.000000	0.000000	0.000000	0.000000	0.000000	0.000000	0.000000	0.000000	0.000000	0.000000	4.900001	1.800000	
-0.068359	0.051270	1.009277	-2.195122	0.670732	0.304878	19.950001	183.958603	28.251564	0.000000	0.000000	50.000000	-0.068359	-1.629312	2.216576	-24.240217	-24.240217	12.923200	27.000000	31.000000	0.000000	1.000000	6.911498	6.492620	30.000000	5.872393	4.350000	0.000000	0.000000	0.000000	0.000000	0.000000	0.000000	0.000000	0.000000	0.000000	0.000000	0.000000	0.000000	4.950001	1.800000	
-0.018066	0.060547	0.916504	-0.670732	0.000000	-0.060976	19.950001	183.958603	28.251564	0.000000	0.000000	50.000000	-0.018066	-1.476190	2.171843	-24.602795	-24.602795	12.836800	27.000000	31.000000	0.000000	1.000000	6.911498	6.492620	30.000000	5.872393	4.350000	0.000000	0.000000	0.000000	0.000000	0.000000	0.000000	0.000000	0.000000	0.000000	0.000000	0.000000	0.000000	5.000001	1.800000	
0.010254	0.031738	1.003418	-1.524390	-0.426829	0.487805	21.375002	182.524231	26.184376	0.000000	0.000000	50.000000	0.010254	-1.469659	2.023977	-23.962488	-23.962488	12.925600	27.000000	31.000000	1.000000	1.000000	6.911498	6.492620	30.000000	5.872393	4.350000	0.000000	0.000000	0.000000	0.000000	0.000000	0.000000	0.000000	0.000000	0.000000	0.000000	0.000000	0.000000	5.050001	1.800000	
-0.054199	0.037598	1.009277	-2.012195	0.000000	-0.121951	21.375002	182.524231	26.184376	0.000000	0.000000	50.000000	-0.054199	-1.473263	2.084719	-24.227745	-24.227745	12.923200	27.000000	31.000000	1.000000	1.000000	6.911498	6.073740	30.000000	5.872393	4.350000	0.000000	0.000000	0.000000	0.000000	0.000000	0.000000	0.000000	0.000000	0.000000	0.000000	0.000000	0.000000	5.100001	1.800000	
0.060059	0.058105	0.960937	-0.975610	0.670732	0.426829	21.375002	182.524231	26.184376	0.000000	0.000000	50.000000	0.060059	-1.358846	1.849085	-24.227745	-24.227745	12.925600	27.000000	31.000000	1.000000	1.000000	6.911498	6.073740	30.000000	5.872393	4.350000	0.000000	0.000000	0.000000	0.000000	0.000000	0.000000	0.000000	0.000000	0.000000	0.000000	0.000000	0.000000	5.150002	1.800000	
-0.020996	0.023926	0.934570	-1.707317	-0.182927	0.060976	21.375002	182.524231	27.562502	0.000000	0.000000	50.000000	-0.020996	-1.384917	1.821283	-24.088938	-24.088938	12.923200	27.000000	31.000000	0.000000	1.000000	6.911498	6.911498	30.000000	5.872393	4.350000	0.000000	0.000000	0.000000	0.000000	0.000000	0.000000	0.000000	0.000000	0.000000	0.000000	0.000000	0.000000	5.200002	1.800000	
-0.079102	0.008301	1.023438	-2.560976	0.426829	0.243902	21.375002	182.524231	27.562502	0.000000	0.000000	50.000000	-0.079102	-1.501947	1.980416	-24.581575	-24.581575	12.923200	27.000000	31.000000	1.000000	1.000000	6.911498	6.073740	30.000000	5.872393	4.350000	0.000000	0.000000	0.000000	0.000000	0.000000	0.000000	0.000000	0.000000	0.000000	0.000000	0.000000	0.000000	5.250002	1.800000	
-0.180176	-0.089844	1.001465	-1.036585	-0.609756	0.853659	21.375002	182.524231	27.562502	0.000000	0.000000	50.000000	-0.180176	-1.809345	2.363366	-24.707460	-24.707460	12.860800	27.000000	31.000000	0.000000	1.000000	6.911498	6.492620	30.000000	5.872393	4.350000	0.000000	0.000000	0.000000	0.000000	0.000000	0.000000	0.000000	0.000000	0.000000	0.000000	0.000000	0.000000	5.300002	1.800000	
0.069824	-0.023926	0.899414	-1.951220	-0.487805	0.243902	21.375002	182.524231	27.562502	0.000000	0.000000	50.000000	0.069824	-1.972852	2.012298	-24.707460	-24.707460	12.923200	27.000000	31.000000	1.000000	1.000000	6.492620	6.911498	30.000000	5.872393	4.350000	0.000000	0.000000	0.000000	0.000000	0.000000	0.000000	0.000000	0.000000	0.000000	0.000000	0.000000	0.000000	5.350002	1.800000	
-0.003418	0.028320	0.898438	-0.426829	0.304878	1.158537	21.375002	182.524231	27.562502	0.000000	0.000000	50.000000	-0.003418	-1.885761	1.949656	-24.466791	-24.466791	12.911200	27.000000	31.000000	3.000000	1.000000	6.492620	6.492620	30.000000	5.872393	4.350000	0.000000	0.000000	0.000000	0.000000	0.000000	0.000000	0.000000	0.000000	0.000000	0.000000	0.000000	0.000000	5.400002	1.800000	
-0.010254	0.036621	1.001953	-1.341463	-0.609756	0.487805	22.978127	183.062119	26.701174	0.000000	0.000000	50.000000	-0.010254	-1.835884	1.861629	-24.284294	-24.284294	12.923200	27.000000	31.000000	2.000000	1.000000	6.911498	6.492620	30.000000	5.872393	4.350000	0.000000	0.000000	0.000000	0.000000	0.000000	0.000000	0.000000	0.000000	0.000000	0.000000	0.000000	0.000000	5.450003	1.800000	
-0.013184	0.076660	0.965820	-1.951220	1.219512	0.487805	22.978127	183.062119	26.701174	0.000000	0.000000	50.000000	-0.013184	-1.698732	1.879240	-24.227745	-24.227745	12.923200	27.000000	31.000000	1.000000	1.000000	6.911498	6.492620	0.000000	10.000000	10.000000	0.000000	0.000000	0.000000	0.000000	0.000000	0.000000	0.000000	0.000000	0.000000	0.000000	0.000000	0.000000	5.500003	1.800000	
0.012207	0.019531	0.973633	-1.341463	0.670732	-0.243902	21.196877	185.572266	27.045704	0.000000	0.000000	50.000000	0.012207	-1.706020	1.793029	-24.227745	-24.227745	12.923200	27.000000	31.000000	1.000000	1.000000	6.911498	6.492620	0.000000	10.000000	10.000000	0.000000	0.000000	0.000000	0.000000	0.000000	0.000000	0.000000	0.000000	0.000000	0.000000	0.000000	0.000000	5.550003	1.800000	
0.197266	0.036621	0.785645	1.158537	0.182927	1.402439	21.196877	185.572266	27.045704	0.000000	0.000000	50.000000	0.197266	-1.517399	1.039231	-24.215139	-24.215139	12.923200	27.000000	31.000000	0.000000	0.000000	3.455749	0.837757	0.000000	10.000000	10.000000	0.000000	0.000000	0.000000	0.000000	0.000000	0.000000	0.000000	0.000000	0.000000	0.000000	0.000000	0.000000	5.600003	1.800000	
0.166992	0.136719	1.004883	19.024391	-8.109756	2.743902	21.196877	185.572266	27.045704	0.000000	0.000000	50.000000	0.166992	-0.195759	0.135343	-24.296490	-24.296490	12.923200	27.000000	31.000000	0.000000	0.000000	3.455749	3.455749	0.000000	10.000000	10.000000	0.000000	0.000000	0.000000	0.000000	0.000000	0.000000	0.000000	0.000000	0.000000	0.000000	0.000000	0.000000	5.650003	1.800000	
0.010254	-0.010742	0.933594	-0.304878	-14.207317	3.841463	22.800001	182.882812	31.352345	0.000000	0.000000	50.000000	0.010254	-0.315119	-0.601644	-23.976477	-23.976477	12.925600	27.000000	31.000000	0.000000	0.000000	1.675515	0.000000	0.000000	10.000000	10.000000	0.000000	0.000000	0.000000	0.000000	0.000000	0.000000	0.000000	0.000000	0.000000	0.000000	0.000000	0.000000	5.700004	1.800000	
0.164551	0.065918	0.694824	1.036585	-7.378049	-1.768293	22.800001	182.882812	31.352345	0.000000	0.000000	50.000000	0.164551	-0.065981	-1.581968	-23.976477	-23.976477	12.923200	27.000000	31.000000	0.000000	0.000000	0.418879	0.000000	0.000000	10.000000	10.000000	0.000000	0.000000	0.000000	0.000000	0.000000	0.000000	0.000000	0.000000	0.000000	0.000000	0.000000	0.000000	5.750004	1.800000	
0.010742	0.025879	1.042480	-7.317073	11.341463	0.182927	22.800001	182.524231	31.007814	0.000000	0.000000	50.000000	0.010742	-0.438266	-0.955582	-24.158564	-24.158564	12.923200	27.000000	31.000000	0.000000	0.000000	0.000000	0.000000	0.000000	10.000000	10.000000	0.000000	0.000000	0.000000	0.000000	0.000000	0.000000	0.000000	0.000000	0.000000	0.000000	0.000000	0.000000	5.800004	1.800000	
-0.164551	-0.244141	0.988770	-5.853659	5.182927	1.280488	22.800001	182.524231	31.007814	0.000000	0.000000	50.000000	-0.164551	-1.461163	-0.188294	-24.259502	-24.259502	12.925600	27.000000	31.000000	0.000000	0.000000	0.000000	0.000000	0.000000	10.000000	10.000000	0.000000	0.000000	0.000000	0.000000	0.000000	0.000000	0.000000	0.000000	0.000000	0.000000	0.000000	0.000000	5.850004	1.800000	
-0.038574	0.115234	0.902832	-1.890244	-2.256098	-0.182927	22.800001	182.524231	31.007814	0.000000	0.000000	50.000000	-0.038574	-1.205289	-0.162236	-24.466791	-24.466791	12.918400	27.000000	31.000000	0.000000	0.000000	0.000000	0.000000	0.000000	10.000000	10.000000	0.000000	0.000000	0.000000	0.000000	0.000000	0.000000	0.000000	0.000000	0.000000	0.000000	0.000000	0.000000	5.900004	1.800000	
-0.038574	0.019043	0.958496	-5.365854	0.365854	-2.500000	22.800001	182.524231	31.007814	0.000000	0.000000	50.000000	-0.038574	-1.437573	-0.015297	-24.466791	-24.466791	12.923200	27.000000	31.000000	0.000000	0.000000	0.000000	0.000000	0.000000	10.000000	10.000000	0.000000	0.000000	0.000000	0.000000	0.000000	0.000000	0.000000	0.000000	0.000000	0.000000	0.000000	0.000000	5.950005	1.800000	
0.062988	0.117676	0.958496	2.804878	4.451220	1.585366	22.800001	182.524231	31.007814	0.000000	0.000000	50.000000	0.062988	-0.963006	0.034877	-24.649725	-24.649725	12.923200	27.000000	31.000000	0.000000	0.000000	0.000000	0.000000	0.000000	10.000000	10.000000	0.000000	0.000000	0.000000	0.000000	0.000000	0.000000	0.000000	0.000000	0.000000	0.000000	0.000000	0.000000	6.000005	1.800000	
-0.075684	0.080078	0.909668	-0.731707	3.292683	0.731707	21.553125	183.420715	32.558205	0.000000	0.000000	50.000000	-0.075684	-0.784596	0.442192	-24.145542	-24.145542	12.925600	27.000000	31.000000	0.000000	0.000000	0.000000	0.000000	0.000000	10.000000	10.000000	0.000000	0.000000	0.000000	0.000000	0.000000	0.000000	0.000000	0.000000	0.000000	0.000000	0.000000	0.000000	6.050005	1.800000	
-0.086914	0.030762	0.949219	-1.707317	-5.060976	0.060976	21.553125	183.420715	32.558205	0.000000	0.000000	50.000000	-0.086914	-0.820259	0.435490	-24.284294	-24.284294	12.925600	27.000000	31.000000	0.000000	0.000000	0.000000	0.000000	0.000000	10.000000	10.000000	0.000000	0.000000	0.000000	0.000000	0.000000	0.000000	0.000000	0.000000	0.000000	0.000000	0.000000	0.000000	6.100005	1.800000	
0.085449	0.089844	1.017090	-3.536586	-1.036585	0.426829	21.553125	183.420715	32.558205	0.000000	0.000000	50.000000	0.085449	-0.788481	0.136006	-24.284294	-24.284294	12.923200	27.000000	31.000000	0.000000	0.000000	0.000000	0.000000	0.000000	10.000000	10.000000	0.000000	0.000000	0.000000	0.000000	0.000000	0.000000	0.000000	0.000000	0.000000	0.000000	0.000000	0.000000	6.150005	1.800000	
-0.056152	0.018555	0.890625	-0.792683	3.658537	0.060976	22.978127	182.703522	30.491016	0.000000	0.000000	50.000000	-0.056152	-0.810588	0.500194	-24.284294	-24.284294	12.923200	27.000000	31.000000	0.000000	0.000000	0.000000	0.000000	0.000000	10.000000	10.000000	0.000000	0.000000	0.000000	0.000000	0.000000	0.000000	0.000000	0.000000	0.000000	0.000000	0.000000	0.000000	6.200006	1.800000	
-0.062500	0.037109	1.006348	-1.707317	-2.926829	0.426829	22.978127	182.703522	30.491016	0.000000	0.000000	50.000000	-0.062500	-0.831982	0.514684	-24.613235	-24.613235	12.923200	27.000000	31.000000	0.000000	0.000000	0.000000	0.000000	0.000000	10.000000	10.000000	0.000000	0.000000	0.000000	0.000000	0.000000	0.000000	0.000000	0.000000	0.000000	0.000000	0.000000	0.000000	6.250006	1.800000	
0.026367	-0.028320	0.954102	-2.195122	-1.280488	-0.182927	22.443750	182.882812	32.730469	0.000000	0.000000	50.000000	0.026367	-1.065026	0.356465	-24.918022	-24.918022	12.923200	27.000000	31.000000	0.000000	0.000000	0.000000	0.000000	0.000000	10.000000	10.000000	0.000000	0.000000	0.000000	0.000000	0.000000	0.000000	0.000000	0.000000	0.000000	0.000000	0.000000	0.000000	6.300006	1.800000	
0.000977	0.066895	0.996582	1.280488	4.146341	0.304878	22.443750	182.882812	32.730469	0.000000	0.000000	50.000000	0.000977	-0.839152	0.553193	-24.918022	-24.918022	12.923200	27.000000	31.000000	0.000000	0.000000	0.000000	0.000000	0.000000	10.000000	10.000000	0.000000	0.000000	0.000000	0.000000	0.000000	0.000000	0.000000	0.000000	0.000000	0.000000	0.000000	0.000000	6.350006	1.800000	
-0.085938	0.044922	0.914062	-2.560976	0.609756	0.365854	22.443750	182.882812	32.730469	0.000000	0.000000	50.000000	-0.085938	-0.867473	0.831435	-24.727314	-24.727314	12.923200	27.000000	31.000000	0.000000	0.000000	0.000000	0.000000	0.000000	10.000000	10.000000	0.000000	0.000000	0.000000	0.000000	0.000000	0.000000	0.000000	0.000000	0.000000	0.000000	0.000000	0.000000	6.400006	1.800000	
-0.020020	0.086914	0.962402	-1.524390	-3.597561	0.304878	22.800001	182.165634	33.075001	0.000000	0.000000	50.000000	-0.020020	-0.726651	0.679223	-24.409775	-24.409775	12.923200	27.000000	31.000000	0.000000	0.000000	0.000000	0.000000	0.000000	10.000000	10.000000	0.000000	0.000000	0.000000	0.000000	0.000000	0.000000	0.000000	0.000000	0.000000	0.000000	0.000000	0.000000	6.450006	1.800000	
0.032227	0.034180	0.955566	-3.902439	2.012195	0.182927	22.800001	182.165634	33.075001	0.000000	0.000000	50.000000	0.032227	-0.864963	0.660509	-24.524057	-24.524057	12.925600	27.000000	31.000000	0.000000	0.000000	0.000000	0.000000	0.000000	10.000000	10.000000	0.000000	0.000000	0.000000	0.000000	0.000000	0.000000	0.000000	0.000000	0.000000	0.000000	0.000000	0.000000	6.500007	1.800000	
-0.042480	0.013672	0.945801	0.792683	0.243902	0.609756	20.840626	181.986328	31.524611	0.000000	0.000000	50.000000	-0.042480	-0.821774	0.777232	-24.524057	-24.524057	12.923200	27.000000	31.000000	0.000000	0.000000	0.000000	0.000000	0.000000	10.000000	10.000000	0.000000	0.000000	0.000000	0.000000	0.000000	0.000000	0.000000	0.000000	0.000000	0.000000	0.000000	0.000000	6.550007	1.800000	
-0.030273	0.013672	0.985352	-2.926829	-1.707317	0.060976	20.840626	181.986328	31.524611	0.000000	0.000000	50.000000	-0.030273	-0.968610	0.750042	-24.784727	-24.784727	12.923200	27.000000	31.000000	0.000000	0.000000	0.000000	0.000000	0.000000	10.000000	10.000000	0.000000	0.000000	0.000000	0.000000	0.000000	0.000000	0.000000	0.000000	0.000000	0.000000	0.000000	0.000000	6.600007	1.800000	
0.024902	0.007812	0.943848	-0.060976	0.365854	-0.060976	20.840626	181.986328	31.524611	0.000000	0.000000	50.000000	0.024902	-0.980772	0.665905	-24.466791	-24.466791	12.923200	27.000000	31.000000	0.000000	0.000000	0.000000	0.000000	0.000000	10.000000	10.000000	0.000000	0.000000	0.000000	0.000000	0.000000	0.000000	0.000000	0.000000	0.000000	0.000000	0.000000	0.000000	6.650007	1.800000	
-0.034180	0.080078	0.968262	-0.609756	2.987805	0.182927	20.840626	181.986328	31.524611	0.000000	0.000000	50.000000	-0.034180	-0.810151	0.891652	-24.900303	-24.900303	12.923200	27.000000	31.000000	0.000000	0.000000	0.000000	0.000000	0.000000	10.000000	10.000000	0.000000	0.000000	0.000000	0.000000	0.000000	0.000000	0.000000	0.000000	0.000000	0.000000	0.000000	0.000000	6.700007	1.800000	
-0.084473	0.032715	0.918945	-1.768293	-0.975610	0.487805	20.840626	181.986328	31.524611	0.000000	0.000000	50.000000	-0.084473	-0.838259	1.068236	-24.900303	-24.900303	12.923200	27.000000	31.000000	0.000000	0.000000	0.000000	0.000000	0.000000	10.000000	10.000000	0.000000	0.000000	0.000000	0.000000	0.000000	0.000000	0.000000	0.000000	0.000000	0.000000	0.000000	0.000000	6.750008	1.800000	
0.024414	0.064941	0.991699	-2.560976	-1.768293	0.365854	22.265627	183.420715	30.491016	0.000000	0.000000	50.000000	0.024414	-0.820172	0.867478	-24.466791	-24.466791	12.923200	27.000000	31.000000	0.000000	0.000000	0.000000	0.000000	0.000000	10.000000	10.000000	0.000000	0.000000	0.000000	0.000000	0.000000	0.000000	0.000000	0.000000	0.000000	0.000000	0.000000	0.000000	6.800008	1.800000	
-0.021973	0.003906	0.935059	-2.073171	2.134146	0.000000	22.265627	183.420715	30.491016	0.000000	0.000000	50.000000	-0.021973	-0.951993	1.007346	-24.478025	-24.478025	12.923200	27.000000	31.000000	0.000000	0.000000	0.000000	0.000000	0.000000	10.000000	10.000000	0.000000	0.000000	0.000000	0.000000	0.000000	0.000000	0.000000	0.000000	0.000000	0.000000	0.000000	0.000000	6.850008	1.800000	
-0.041504	0.033691	0.993164	-1.036585	0.121951	0.487805	22.265627	183.420715	30.491016	0.000000	0.000000	50.000000	-0.041504	-0.941008	1.091674	-24.478025	-24.478025	12.923200	27.000000	31.000000	0.000000	0.000000	0.000000	0.000000	0.000000	10.000000	10.000000	0.000000	0.000000	0.000000	0.000000	0.000000	0.000000	0.000000	0.000000	0.000000	0.000000	0.000000	0.000000	6.900008	1.800000	
-0.013184	0.005371	0.917969	-2.682927	-0.975610	0.121951	22.443750	182.882812	31.696877	0.000000	0.000000	50.000000	-0.013184	-1.092293	1.039115	-24.707460	-24.707460	12.923200	27.000000	31.000000	0.000000	0.000000	0.000000	0.000000	0.000000	10.000000	10.000000	0.000000	0.000000	0.000000	0.000000	0.000000	0.000000	0.000000	0.000000	0.000000	0.000000	0.000000	0.000000	6.950008	1.800000	
0.010254	0.062012	0.955078	0.792683	1.341463	0.365854	22.443750	182.882812	31.696877	0.000000	0.000000	50.000000	0.010254	-0.895446	1.034294	-24.421289	-24.421289	12.923200	27.000000	31.000000	0.000000	0.000000	0.000000	0.000000	0.000000	10.000000	10.000000	0.000000	0.000000	0.000000	0.000000	0.000000	0.000000	0.000000	0.000000	0.000000	0.000000	0.000000	0.000000	7.000009	1.800000	
-0.069824	0.049316	0.954102	-2.256098	1.768293	-0.060976	22.443750	182.882812	31.696877	0.000000	0.000000	50.000000	-0.069824	-0.898923	1.287571	-24.466791	-24.466791	12.923200	27.000000	31.000000	0.000000	0.000000	0.000000	0.000000	0.000000	10.000000	10.000000	0.000000	0.000000	0.000000	0.000000	0.000000	0.000000	0.000000	0.000000	0.000000	0.000000	0.000000	0.000000	7.050009	1.800000	
-0.042480	0.048828	0.951660	-1.768293	-1.890244	0.426829	22.265627	183.779297	30.835548	0.000000	0.000000	50.000000	-0.042480	-0.877990	1.265493	-24.466791	-24.466791	12.923200	27.000000	31.000000	0.000000	0.000000	0.000000	0.000000	0.000000	10.000000	10.000000	0.000000	0.000000	0.000000	0.000000	0.000000	0.000000	0.000000	0.000000	0.000000	0.000000	0.000000	0.000000	7.100009	1.800000	
0.019531	0.048828	0.950684	-3.292683	0.487805	0.060976	22.265627	183.779297	30.835548	0.000000	0.000000	50.000000	0.019531	-0.934383	1.178710	-24.088938	-24.088938	12.923200	27.000000	31.000000	0.000000	0.000000	0.000000	0.000000	0.000000	10.000000	10.000000	0.000000	0.000000	0.000000	0.000000	0.000000	0.000000	0.000000	0.000000	0.000000	0.000000	0.000000	0.000000	7.150009	1.800000	
-0.048340	0.012207	0.959473	-0.731707	1.036585	0.365854	23.156252	183.958603	32.041409	0.000000	0.000000	50.000000	-0.048340	-0.969065	1.324462	-24.639345	-24.639345	12.918400	27.000000	31.000000	0.000000	0.000000	0.000000	0.000000	0.000000	10.000000	10.000000	0.000000	0.000000	0.000000	0.000000	0.000000	0.000000	0.000000	0.000000	0.000000	0.000000	0.000000	0.000000	7.200009	1.800000	
-0.024414	0.034668	0.985840	-2.256098	-0.548781	0.060976	23.156252	183.958603	32.041409	0.000000	0.000000	50.000000	-0.024414	-1.015011	1.311085	-24.296490	-24.296490	12.923200	27.000000	31.000000	0.000000	0.000000	0.000000	0.000000	0.000000	10.000000	10.000000	0.000000	0.000000	0.000000	0.000000	0.000000	0.000000	0.000000	0.000000	0.000000	0.000000	0.000000	0.000000	7.250010	1.800000	
0.004883	0.012695	0.936523	-0.914634	-0.121951	0.487805	23.156252	183.958603	32.041409	0.000000	0.000000	50.000000	0.004883	-1.052095	1.235096	-24.296490	-24.296490	12.923200	27.000000	31.000000	0.000000	0.000000	0.000000	0.000000	0.000000	10.000000	10.000000	0.000000	0.000000	0.000000	0.000000	0.000000	0.000000	0.000000	0.000000	0.000000	0.000000	0.000000	0.000000	7.300010	1.800000	
-0.015625	0.071777	0.991699	-0.731707	2.012195	0.121951	21.375002	182.524231	30.318752	0.000000	0.000000	50.000000	-0.015625	-0.912928	1.328745	-24.524057	-24.524057	12.925600	27.000000	31.000000	0.000000	0.000000	0.000000	0.000000	0.000000	10.000000	10.000000	0.000000	0.000000	0.000000	0.000000	0.000000	0.000000	0.000000	0.000000	0.000000	0.000000	0.000000	0.000000	7.350010	1.800000	
-0.065918	0.041504	0.920898	-2.195122	0.000000	0.487805	21.375002	182.524231	30.318752	0.000000	0.000000	50.000000	-0.065918	-0.930278	1.475227	-24.592241	-24.592241	12.923200	27.000000	31.000000	0.000000	0.000000	0.000000	0.000000	0.000000	10.000000	10.000000	0.000000	0.000000	0.000000	0.000000	0.000000	0.000000	0.000000	0.000000	0.000000	0.000000	0.000000	0.000000	7.400010	1.800000	
-0.005371	0.065430	0.961426	-2.256098	-1.097561	0.182927	23.156252	183.600006	31.696877	0.000000	0.000000	50.000000	-0.005371	-0.885286	1.372961	-24.775141	-24.775141	12.923200	27.000000	31.000000	0.000000	0.000000	0.000000	0.000000	0.000000	10.000000	10.000000	0.000000	0.000000	0.000000	0.000000	0.000000	0.000000	0.000000	0.000000	0.000000	0.000000	0.000000	0.000000	7.450010	1.800000	
-0.015137	0.013672	0.939941	-2.378049	1.280488	0.121951	23.156252	183.600006	31.696877	0.000000	0.000000	50.000000	-0.015137	-0.999622	1.424061	-24.775141	-24.775141	12.923200	27.000000	31.000000	0.000000	0.000000	0.000000	0.000000	0.000000	10.000000	10.000000	0.000000	0.000000	0.000000	0.000000	0.000000	0.000000	0.000000	0.000000	0.000000	0.000000	0.000000	0.000000	7.500010	1.800000	
-0.043457	0.020508	0.966797	-0.914634	0.000000	0.487805	23.156252	183.600006	31.696877	0.000000	0.000000	50.000000	-0.043457	-1.016035	1.490569	-24.227745	-24.227745	12.923200	27.000000	31.000000	0.000000	0.000000	0.000000	0.000000	0.000000	10.000000	10.000000	0.000000	0.000000	0.000000	0.000000	0.000000	0.000000	0.000000	0.000000	0.000000	0.000000	0.000000	0.000000	7.550011	1.800000	
-0.008789	0.023438	0.951660	-2.195122	-0.731707	0.243902	23.156252	183.600006	31.696877	0.000000	0.000000	50.000000	-0.008789	-1.086023	1.415966	-24.341089	-24.341089	12.923200	27.000000	31.000000	0.000000	0.000000	0.000000	0.000000	0.000000	10.000000	10.000000	0.000000	0.000000	0.000000	0.000000	0.000000	0.000000	0.000000	0.000000	0.000000	0.000000	0.000000	0.000000	7.600011	1.800000	
0.000488	0.053711	0.966797	-0.304878	0.975610	0.548781	23.156252	183.600006	31.696877	0.000000	0.000000	50.000000	0.000488	-0.970592	1.403251	-24.570791	-24.570791	12.923200	27.000000	31.000000	0.000000	0.000000	0.000000	0.000000	0.000000	10.000000	10.000000	0.000000	0.000000	0.000000	0.000000	0.000000	0.000000	0.000000	0.000000	0.000000	0.000000	0.000000	0.000000	7.650011	1.800000	
